,city,lat,lng,max temp,humidity,cloudiness,wind_speed,country,date
0,Hithadhoo,-0.6,73.08,83.28,71,22,4.5,MV,1597546061
1,Pemangkat,1.17,108.97,79.72,78,86,6.71,ID,1597546061
2,North Bend,43.41,-124.22,73.0,63,1,5.82,US,1597546061
3,Porto Walter,-8.27,-72.74,76.71,75,6,2.55,BR,1597546061
4,Albany,42.6,-73.97,71.01,66,74,5.82,US,1597546061
5,Cape Town,-33.93,18.42,48.99,93,75,8.05,ZA,1597545812
6,Ushtobe,45.25,77.98,80.58,24,5,13.62,KZ,1597546062
7,São Paulo de Olivença,-3.38,-68.87,76.59,77,56,1.32,BR,1597546062
8,George Town,5.41,100.34,86.0,79,20,1.12,MY,1597545844
9,Vaini,-21.2,-175.2,71.6,68,40,13.87,TO,1597546062
10,Punta Arenas,-53.15,-70.92,33.8,88,71,27.51,CL,1597545779
11,Sterling,39.01,-77.43,71.01,88,90,8.05,US,1597546063
12,Taungdwingyi,20.02,95.55,78.8,86,98,12.46,MM,1597546063
13,Macao,22.2,113.55,89.6,74,20,5.82,MO,1597546063
14,Millinocket,45.66,-68.71,62.6,77,1,3.18,US,1597546063
15,Mount Isa,-20.73,139.5,77.0,17,0,6.93,AU,1597546063
16,Port Blair,11.67,92.75,84.45,76,72,14.67,IN,1597546007
17,Torbay,47.67,-52.73,50.0,87,5,4.7,CA,1597546064
18,Upernavik,72.79,-56.15,40.82,77,24,13.73,GL,1597546064
19,New Norfolk,-42.78,147.06,55.99,90,100,1.99,AU,1597546064
20,Hilo,19.73,-155.09,82.4,69,90,9.17,US,1597546055
21,Hobart,-42.88,147.33,55.99,82,75,10.29,AU,1597545992
22,Atuona,-9.8,-139.03,78.35,74,21,13.94,PF,1597546065
23,Mataura,-46.19,168.86,51.01,71,24,4.0,NZ,1597546065
24,Petropavlovsk-Kamchatskiy,53.05,158.65,68.0,72,20,4.47,RU,1597545879
25,Taltal,-25.4,-70.48,51.66,73,33,2.75,CL,1597546065
26,Leningradskiy,69.38,178.42,49.93,68,30,14.58,RU,1597546065
27,Busselton,-33.65,115.33,54.0,75,9,4.0,AU,1597546066
28,Qaanaaq,77.48,-69.36,34.27,87,3,2.57,GL,1597546066
29,Saskylakh,71.92,114.08,61.88,42,14,10.33,RU,1597546066
30,Prince Rupert,54.32,-130.32,59.0,100,90,10.29,CA,1597546066
31,Hong Kong,22.29,114.16,89.01,66,99,10.0,HK,1597545952
32,Mayor Pablo Lagerenza,-19.93,-60.77,70.11,57,11,8.41,PY,1597546067
33,Puerto Ayora,-0.74,-90.35,66.0,88,43,1.99,EC,1597546067
34,Ushuaia,-54.8,-68.3,32.0,94,40,11.41,AR,1597545796
35,Bluff,-46.6,168.33,51.01,71,44,4.0,NZ,1597546067
36,Avarua,-21.21,-159.78,77.0,88,0,9.17,CK,1597545906
37,Butaritari,3.07,172.79,82.4,70,77,11.18,KI,1597546067
38,Kapaa,22.08,-159.32,84.2,70,20,12.75,US,1597546067
39,Bengkulu,-3.8,102.27,84.74,63,7,1.23,ID,1597546067
40,Hermanus,-34.42,19.23,46.99,84,82,1.99,ZA,1597546068
41,Severo-Kuril'sk,50.68,156.12,53.91,80,100,6.17,RU,1597546068
42,Acajutla,13.59,-89.83,73.0,93,82,9.31,SV,1597546068
43,Dhidhdhoo,6.88,73.1,82.72,73,97,6.87,MV,1597546068
44,Rikitea,-23.12,-134.97,71.1,76,0,14.07,PF,1597546068
45,Nabire,-3.37,135.48,87.3,57,8,4.79,ID,1597546069
46,Nikolskoye,59.7,30.79,61.0,93,75,6.71,RU,1597546069
47,Nerchinskiy Zavod,51.31,119.61,66.61,73,74,3.96,RU,1597546069
48,Yumen,40.28,97.2,75.54,20,96,10.31,CN,1597546069
49,Dombarovskiy,50.76,59.54,60.96,57,2,9.46,RU,1597546069
50,Jamestown,42.1,-79.24,69.8,73,90,3.36,US,1597545991
51,Bougouni,11.42,-7.48,70.36,92,99,3.18,ML,1597546070
52,Husavik,66.04,-17.34,44.6,93,46,2.66,IS,1597546070
53,Seeboden,46.82,13.49,57.99,97,0,2.62,AT,1597546070
54,Vestmannaeyjar,63.44,-20.27,52.7,93,72,9.26,IS,1597546070
55,Pevek,69.7,170.31,42.78,74,0,0.63,RU,1597546070
56,Luxor,25.7,32.64,80.6,51,0,4.7,EG,1597546070
57,Arraial do Cabo,-22.97,-42.03,72.5,80,64,6.85,BR,1597545845
58,Qasigiannguit,68.82,-51.19,39.2,64,0,5.82,GL,1597546071
59,Zhangjiakou Shi Xuanhua Qu,40.61,115.04,80.78,51,98,7.9,CN,1597546071
60,Mount Gambier,-37.83,140.77,57.2,71,40,10.29,AU,1597546071
61,Aktobe,50.28,57.21,55.4,76,89,11.18,KZ,1597546071
62,Atar,20.52,-13.05,97.43,24,1,6.58,MR,1597546071
63,Iqaluit,63.75,-68.51,44.6,93,90,20.8,CA,1597546072
64,Ketchikan,55.34,-131.65,59.0,100,90,13.87,US,1597546072
65,Krasnosel'kup,65.7,82.47,61.52,78,100,12.15,RU,1597546072
66,Ancud,-41.87,-73.82,45.0,87,75,4.7,CL,1597546072
67,Kadaya,50.93,119.29,66.34,78,87,3.04,RU,1597546072
68,Bambous Virieux,-20.34,57.76,72.0,73,40,11.41,MU,1597546072
69,Abbeville,50.1,1.83,62.01,46,44,1.92,FR,1597546073
70,Cochrane,51.18,-114.47,71.6,49,1,10.29,CA,1597545952
71,Avera,33.19,-82.53,75.2,100,1,6.24,US,1597546073
72,Kalabo,-14.97,22.68,54.54,38,3,4.05,ZM,1597546073
73,Castro,-24.79,-50.01,59.52,93,100,9.22,BR,1597545784
74,Port Lincoln,-34.73,135.87,56.82,59,82,7.38,AU,1597546073
75,Airai,-8.93,125.41,78.82,32,11,5.41,TL,1597546074
76,Saint-Philippe,-21.36,55.77,66.2,55,40,5.82,RE,1597546074
77,Ruteng,-8.61,120.47,75.24,60,0,2.26,ID,1597546074
78,Ust'-Shonosha,61.15,41.34,52.12,92,63,5.37,RU,1597546074
79,Andra,62.51,65.89,53.42,63,0,6.42,RU,1597546074
80,Yar-Sale,66.83,70.83,49.87,68,100,12.41,RU,1597546075
81,Khatanga,71.97,102.5,65.71,46,0,4.56,RU,1597546075
82,Mahébourg,-20.41,57.7,69.8,73,40,11.41,MU,1597546075
83,Juneau,58.3,-134.42,57.2,87,75,6.93,US,1597545903
84,Yellowknife,62.46,-114.35,57.2,54,75,5.82,CA,1597545951
85,Faanui,-16.48,-151.75,78.15,80,100,15.57,PF,1597546076
86,Hasaki,35.73,140.83,88.0,79,75,11.41,JP,1597546076
87,Quelimane,-17.88,36.89,62.6,93,0,2.24,MZ,1597546076
88,Mersing,2.43,103.84,84.2,83,40,3.36,MY,1597546076
89,Riyadh,24.69,46.72,78.8,34,20,1.3,SA,1597546076
90,Shitanjing,39.23,106.34,74.7,47,57,8.99,CN,1597546076
91,Bozeman,45.68,-111.04,80.6,21,1,3.36,US,1597546077
92,Ahipara,-35.17,173.17,57.18,58,100,6.4,NZ,1597546077
93,Moanda,-1.56,13.22,71.6,87,91,2.26,GA,1597546077
94,Sibolga,1.74,98.78,86.36,60,8,3.38,ID,1597546077
95,Nantucket,41.28,-70.1,66.2,93,90,14.99,US,1597545796
96,Kropachëvo,55.01,57.99,53.49,91,53,3.06,RU,1597546078
97,Klaksvík,62.23,-6.59,53.6,100,90,2.48,FO,1597546078
98,Luba,3.46,8.55,75.2,100,40,8.05,GQ,1597546078
99,Ormara,25.21,64.64,83.98,84,98,7.09,PK,1597546078
100,Clyde River,70.47,-68.59,35.6,100,90,4.7,CA,1597546078
101,Ribeira Grande,38.52,-28.7,73.44,85,43,18.32,PT,1597546079
102,Lucea,18.45,-78.17,84.2,74,20,3.36,JM,1597546079
103,Half Moon Bay,37.46,-122.43,89.6,60,1,11.41,US,1597545811
104,Kieta,-6.22,155.63,83.23,72,29,3.13,PG,1597546079
105,Bereket,39.24,55.52,75.18,48,27,7.7,TM,1597546079
106,Hokitika,-42.72,170.97,52.99,66,0,4.94,NZ,1597546079
107,Karlstad,59.38,13.5,55.0,100,0,4.7,SE,1597546079
108,Katsuura,35.13,140.3,89.6,75,20,14.99,JP,1597546080
109,Palauig,15.44,119.9,85.12,69,64,6.87,PH,1597546080
110,Ostrovnoy,68.05,39.51,55.42,90,100,13.71,RU,1597546080
111,Port Elizabeth,-33.92,25.57,50.0,61,40,21.92,ZA,1597545782
112,Kāvali,14.92,79.98,83.5,62,100,15.61,IN,1597546080
113,Bud,39.45,-86.18,78.01,83,1,3.87,US,1597546080
114,Tasiilaq,65.61,-37.64,42.8,75,100,18.34,GL,1597546081
115,Los Llanos de Aridane,28.66,-17.92,71.6,68,11,12.75,ES,1597546081
116,Fairbanks,64.84,-147.72,69.8,49,75,6.93,US,1597546063
117,Brae,60.4,-1.35,55.4,93,84,2.24,GB,1597546081
118,Kushima,31.46,131.23,89.6,75,20,10.29,JP,1597546081
119,Skellefteå,64.75,20.95,55.4,62,0,14.99,SE,1597546082
120,Talnakh,69.49,88.4,62.6,59,100,13.42,RU,1597546082
121,Provideniya,64.38,-173.3,57.81,57,3,9.89,RU,1597546083
122,Neiafu,-18.65,-173.98,75.2,57,40,10.29,TO,1597546083
123,Hambantota,6.12,81.12,80.6,94,20,10.29,LK,1597546083
124,Inírida,3.87,-67.92,74.79,94,100,2.17,CO,1597545914
125,Kutum,14.2,24.67,73.6,71,99,6.15,SD,1597546084
126,Burnie,-41.07,145.92,59.0,61,97,5.01,AU,1597546084
127,Nome,64.5,-165.41,64.99,76,1,6.93,US,1597546084
128,Gisborne,-38.65,178.0,53.01,58,94,4.0,NZ,1597546084
129,Namatanai,-3.67,152.43,83.95,72,92,4.21,PG,1597546084
130,Tura,25.52,90.22,81.64,79,68,7.34,IN,1597546084
131,Dicabisagan,17.08,122.42,79.12,87,100,4.25,PH,1597546085
132,Bredasdorp,-34.53,20.04,44.6,87,50,16.11,ZA,1597546085
133,Tulum,20.22,-87.47,84.99,83,75,4.79,MX,1597546085
134,Port Alfred,-33.59,26.89,50.49,69,88,19.73,ZA,1597546085
135,Sola,-13.88,167.55,78.89,83,99,23.17,VU,1597546085
136,San Policarpo,12.18,125.51,85.35,69,69,6.46,PH,1597546085
137,Esperance,-33.87,121.9,62.6,77,75,24.16,AU,1597546086
138,Bilma,18.69,12.92,87.22,17,69,7.27,NE,1597546086
139,Yining,29.04,114.56,93.13,52,0,4.47,CN,1597546086
140,Prince George,53.92,-122.75,71.01,77,1,3.36,CA,1597545849
141,Mollendo,-17.02,-72.01,57.87,77,98,7.23,PE,1597546086
142,Merauke,-8.47,140.33,81.05,64,97,11.92,ID,1597546086
143,Dikson,73.51,80.55,43.38,88,28,2.73,RU,1597546087
144,Puri,19.8,85.85,80.6,100,75,10.29,IN,1597546087
145,Velizh,55.61,31.2,55.29,96,28,3.85,RU,1597546087
146,Valdivia,-39.81,-73.25,44.6,87,75,5.82,CL,1597546087
147,Cabo San Lucas,22.89,-109.91,89.6,51,5,11.41,MX,1597546087
148,Lata,40.16,-8.33,60.01,100,40,2.24,PT,1597546088
149,Palmerston,-12.49,130.98,91.0,49,20,4.7,AU,1597546088
150,Matamoros,25.53,-103.25,93.2,18,20,14.99,MX,1597546089
151,Miraflores,19.22,-98.81,62.6,67,75,6.93,MX,1597546089
152,Vanavara,60.34,102.28,58.84,44,0,7.78,RU,1597546089
153,Paamiut,61.99,-49.67,43.92,75,0,5.46,GL,1597546089
154,Acarí,-15.43,-74.62,61.03,61,57,1.88,PE,1597546090
155,Singleton,-32.57,151.18,64.99,38,17,18.99,AU,1597546090
156,Lebu,-37.62,-73.65,43.57,74,28,7.74,CL,1597546090
157,Dudinka,69.41,86.18,62.6,59,100,13.42,RU,1597546090
158,Atasū,48.68,71.64,72.28,38,100,7.81,KZ,1597546090
159,Salalah,17.02,54.09,75.2,100,90,8.05,OM,1597546091
160,Alofi,-19.06,-169.92,75.2,57,0,11.41,NU,1597546091
161,Crixás,-14.55,-49.97,72.41,42,0,0.94,BR,1597546091
162,Chui,-33.7,-53.46,44.91,71,0,8.63,UY,1597546091
163,Pinkafeld,47.37,16.12,64.0,95,69,3.09,AT,1597546091
164,Tommot,58.96,126.29,61.61,46,98,5.91,RU,1597546091
165,Gallup,35.53,-108.74,87.8,8,1,10.29,US,1597546092
166,Carnarvon,-24.87,113.63,68.0,72,90,17.22,AU,1597546092
167,Magadan,59.57,150.8,60.57,65,75,4.85,RU,1597545796
168,San Patricio,19.22,-104.7,81.18,77,96,2.24,MX,1597546092
169,Soller,39.77,2.72,77.0,83,3,3.36,ES,1597546092
170,Vardø,70.37,31.11,47.82,76,97,20.76,NO,1597546092
171,Viedma,-40.81,-63.0,37.99,53,0,3.0,AR,1597546093
172,Hualmay,-11.1,-77.61,58.32,85,17,9.78,PE,1597546093
173,Port Pirie,-33.18,138.02,57.2,82,90,8.05,AU,1597546093
174,Pontianak,-0.03,109.33,82.29,71,98,4.03,ID,1597546027
175,Locri,38.24,16.26,80.6,88,75,4.7,IT,1597546093
176,Naze,28.37,129.48,89.6,75,20,11.41,JP,1597546093
177,Port Moresby,-9.44,147.18,86.0,58,20,11.41,PG,1597546094
178,Lompoc,34.64,-120.46,75.99,60,1,8.05,US,1597545908
179,Talara,-4.58,-81.27,61.61,88,15,13.09,PE,1597546094
180,Thompson,55.74,-97.86,55.4,87,40,3.36,CA,1597546094
181,Mossamedes,-15.2,12.15,59.41,89,13,5.32,AO,1597546094
182,Pierre,44.37,-100.35,77.0,43,1,6.93,US,1597545902
183,Saldanha,-33.01,17.94,42.8,93,2,3.36,ZA,1597546095
184,Grindavik,63.84,-22.43,51.8,100,90,13.87,IS,1597546095
185,Nyurba,63.28,118.33,55.51,48,41,7.78,RU,1597546095
186,Tuktoyaktuk,69.45,-133.04,51.8,62,90,4.7,CA,1597546095
187,Soyo,-6.13,12.37,71.26,88,55,6.13,AO,1597546095
188,Puerto Escondido,15.85,-97.07,82.09,76,61,4.72,MX,1597546095
189,Grand-Santi,4.25,-54.38,76.03,84,96,2.13,GF,1597546096
190,Aklavik,68.22,-135.01,50.0,76,90,6.93,CA,1597546096
191,Lahad Datu,5.03,118.33,85.93,65,21,3.96,MY,1597546096
192,Bouna,9.27,-3.0,68.94,97,57,3.83,CI,1597546096
193,Melfi,41.0,15.65,75.99,83,5,8.05,IT,1597546096
194,Saint Paul Harbor,57.79,-152.41,73.4,33,1,12.75,US,1597546096
195,Meulaboh,4.14,96.13,84.54,69,63,3.78,ID,1597546097
196,Chokurdakh,70.63,147.92,43.41,67,93,7.52,RU,1597546097
197,Cabedelo,-6.98,-34.83,73.4,100,75,5.82,BR,1597546097
198,Ponta do Sol,32.67,-17.1,71.6,64,20,13.87,PT,1597546097
199,Egvekinot,66.32,-179.17,57.78,53,72,8.08,RU,1597546097
200,Portland,45.52,-122.68,97.0,23,20,8.05,US,1597546098
201,Chebarkul',54.97,60.36,52.63,97,100,4.63,RU,1597546098
202,Waitati,-45.75,170.57,46.0,81,63,13.0,NZ,1597546098
203,Fare,-16.7,-151.02,78.73,77,100,14.12,PF,1597546098
204,Deep River,46.1,-77.5,71.6,68,1,5.79,CA,1597546039
205,Barrow,71.29,-156.79,44.6,93,90,9.17,US,1597545902
206,East London,-33.02,27.91,51.89,63,11,18.52,ZA,1597546098
207,Nānākuli,21.39,-158.15,89.6,46,20,8.05,US,1597546099
208,Alyangula,-13.85,136.42,87.8,38,0,9.17,AU,1597546099
209,Hamilton,39.18,-84.53,78.01,94,75,3.58,US,1597545951
210,Vereeniging,-26.67,27.93,50.0,46,0,3.29,ZA,1597546099
211,Acapulco de Juárez,16.86,-99.89,84.2,74,20,1.83,MX,1597546099
212,Narasannapeta,18.42,84.05,80.06,84,100,14.38,IN,1597546099
213,Cherskiy,68.75,161.3,56.25,43,97,1.86,RU,1597546100
214,Trairi,-3.28,-39.27,77.67,75,49,12.8,BR,1597546100
215,Pedernales,18.04,-71.74,81.84,73,84,2.93,DO,1597546100
216,Bosaso,11.28,49.18,88.48,43,10,24.0,SO,1597546100
217,Mosquera,4.71,-74.23,53.6,93,20,2.24,CO,1597546055
218,Fortuna,40.6,-124.16,77.0,47,0,0.76,US,1597546100
219,Kalawit,8.07,122.52,85.32,72,12,5.37,PH,1597546101
220,Dayong,25.02,118.29,89.6,62,20,4.47,CN,1597546101
221,Geraldton,-28.77,114.6,59.0,67,75,19.46,AU,1597546101
222,Akdepe,42.06,59.38,66.2,63,46,11.41,TM,1597546101
223,Pimenta Bueno,-11.67,-61.19,80.94,34,32,4.88,BR,1597546101
224,Kovdor,67.57,30.48,44.62,84,59,9.62,RU,1597546101
225,Yinzhu,35.88,119.98,91.4,66,16,6.71,CN,1597546101
226,Cidreira,-30.18,-50.21,59.38,89,57,12.46,BR,1597546102
227,Byron Bay,-28.65,153.62,71.01,44,0,5.99,AU,1597545839
228,Sydney,-33.87,151.21,68.0,40,47,24.16,AU,1597546056
229,Bontang,0.13,117.5,84.49,70,2,6.96,ID,1597545904
230,Olmos,-5.98,-79.75,60.98,82,40,1.14,PE,1597546102
231,Totskoye,52.52,52.76,55.67,89,100,10.83,RU,1597546103
232,Araouane,18.9,-3.53,97.25,29,0,15.55,ML,1597546103
233,Przhevalskoye,55.51,31.85,53.89,97,24,4.5,RU,1597546103
234,Cairns,-16.92,145.77,84.0,37,0,8.05,AU,1597546034
235,Arman',59.7,150.17,62.06,68,95,3.8,RU,1597546103
236,Vostok,46.49,135.88,72.7,55,0,11.05,RU,1597546103
237,Wagar,16.15,36.2,81.55,61,84,14.85,SD,1597546104
238,Roebourne,-20.78,117.13,77.07,52,5,6.96,AU,1597546104
239,Saint-Pierre,-21.34,55.48,66.2,55,40,5.82,RE,1597546104
240,Margate,51.38,1.39,69.01,96,91,1.01,GB,1597546104
241,Pitimbu,-7.47,-34.81,73.4,100,75,5.82,BR,1597546104
242,Takoradze,4.88,-1.76,73.45,91,28,7.94,GH,1597546104
243,Coquimbo,-29.95,-71.34,48.2,87,0,2.24,CL,1597546105
244,Kloulklubed,7.04,134.26,80.6,88,75,10.29,PW,1597546080
245,Luena,-11.78,19.92,52.3,41,4,3.29,AO,1597546105
246,San Cristobal,7.77,-72.22,66.76,92,100,1.95,VE,1597546105
247,Tanete,-3.94,119.78,74.39,92,100,7.45,ID,1597546105
248,Grand Gaube,-20.01,57.66,72.0,65,65,7.0,MU,1597546106
249,Verkh-Usugli,52.7,115.17,60.46,75,91,4.85,RU,1597546106
250,Piaçabuçu,-10.41,-36.43,73.09,88,0,6.62,BR,1597546106
251,Haines Junction,60.75,-137.51,50.59,86,100,2.8,CA,1597546106
252,Guerrero Negro,27.98,-114.06,78.48,54,0,11.3,MX,1597546106
253,Kumul,42.8,93.45,79.39,20,0,7.09,CN,1597546107
254,Arrecife,28.96,-13.55,71.6,78,0,19.46,ES,1597546107
255,Usinsk,65.99,57.53,54.01,65,93,10.74,RU,1597546107
256,Mar del Plata,-38.0,-57.56,44.6,48,0,13.87,AR,1597545867
257,Santiago,-33.46,-70.65,46.0,48,0,4.7,CL,1597545832
258,Saint George,37.1,-113.58,107.6,6,1,5.82,US,1597546107
259,Hammond,41.58,-87.5,75.99,78,75,4.7,US,1597545980
260,Quatre Cocos,-20.21,57.76,72.0,73,40,11.41,MU,1597546108
261,Posse,-14.09,-46.37,70.23,44,0,4.92,BR,1597546108
262,Coyhaique,-45.58,-72.07,46.4,65,90,11.41,CL,1597546108
263,Lebedinyy,58.52,125.52,53.8,55,100,12.57,RU,1597546108
264,Filingué,14.35,3.32,80.47,71,37,11.86,NE,1597546108
265,São Félix do Xingu,-6.64,-51.99,80.98,38,97,1.12,BR,1597546108
266,Baruun-Urt,46.68,113.28,70.77,60,85,5.79,MN,1597546109
267,Vila Velha,-20.33,-40.29,73.4,83,20,4.7,BR,1597546109
268,Shenandoah,30.4,-91.0,82.0,88,34,1.48,US,1597546109
269,Tiksi,71.69,128.87,43.21,78,92,3.56,RU,1597546109
270,Labuhan,-6.88,112.21,85.15,66,16,5.55,ID,1597546109
271,Cayhagan,9.67,122.43,85.53,69,5,8.25,PH,1597546109
272,Ust-Maya,60.42,134.53,62.96,33,100,6.26,RU,1597546110
273,Anking,30.51,117.05,94.87,52,0,7.96,CN,1597546110
274,Winnemucca,40.97,-117.74,93.2,14,1,3.36,US,1597546110
275,Fasa,28.94,53.65,75.2,44,24,1.28,IR,1597546110
276,Rawson,-43.3,-65.1,46.96,53,85,30.6,AR,1597546110
277,Nanortalik,60.14,-45.24,42.64,76,74,9.82,GL,1597546110
278,Zhigansk,66.77,123.37,51.51,53,0,21.41,RU,1597546111
279,Coahuayana Viejo,18.73,-103.68,79.72,82,20,2.39,MX,1597546111
280,Karratha,-20.74,116.85,76.75,55,11,9.06,AU,1597545921
281,Pareora,-44.49,171.21,51.01,64,2,5.99,NZ,1597546111
282,Bauchi,10.5,10.0,72.81,80,100,6.2,NG,1597546111
283,Naryan-Mar,67.67,53.09,51.53,64,100,18.66,RU,1597546111
284,Porto Recanati,43.44,13.66,73.99,94,0,3.36,IT,1597546112
285,Basco,20.45,121.97,84.07,81,100,12.62,PH,1597546112
286,Ixtapa,20.7,-105.2,86.0,74,40,2.24,MX,1597545888
287,Quthing,-30.4,27.7,41.97,66,76,6.64,LS,1597546113
288,Ilulissat,69.22,-51.1,39.2,64,0,5.82,GL,1597546113
289,Khandyga,62.67,135.6,62.73,30,0,7.58,RU,1597546113
290,Kropotkin,45.44,40.58,55.08,60,0,7.65,RU,1597546114
291,Uusikaupunki,60.8,21.41,63.0,75,94,5.84,FI,1597546114
292,Kaitangata,-46.28,169.85,46.0,82,65,7.0,NZ,1597546114
293,Port-Gentil,-0.72,8.78,74.93,87,98,13.35,GA,1597546114
294,Danielskuil,-28.19,23.54,34.03,95,22,8.86,ZA,1597546114
295,Kysyl-Syr,63.9,122.76,54.43,45,9,10.09,RU,1597546115
296,Isangel,-19.55,169.27,73.4,64,100,6.93,VU,1597546115
297,Brookings,44.31,-96.8,71.6,68,1,5.82,US,1597545915
298,Belaya Gora,68.53,146.42,44.82,59,94,9.86,RU,1597546115
299,Sayyan,15.17,44.32,62.85,68,35,3.56,YE,1597546115
300,Mayskiy,47.69,40.1,46.4,70,0,6.71,RU,1597546115
301,Tuatapere,-46.13,167.68,51.01,71,44,4.0,NZ,1597546116
302,Rawlins,41.79,-107.24,77.0,9,1,6.93,US,1597546116
303,Neosho,36.87,-94.37,75.99,92,10,10.29,US,1597546116
304,Tautira,-17.73,-149.15,82.4,65,20,4.7,PF,1597546116
305,Khovd,48.01,91.64,53.51,72,100,8.03,MN,1597546098
306,Catió,11.28,-15.25,76.39,92,100,2.93,GW,1597546117
307,Whitehorse,60.72,-135.05,52.0,93,90,0.85,CA,1597546117
308,Gladstone,-23.85,151.25,73.4,31,0,2.24,AU,1597546116
309,Walvis Bay,-22.96,14.51,48.99,87,0,4.7,NA,1597546117
310,Pestravka,52.41,49.96,56.35,88,100,12.97,RU,1597546117
311,Codrington,-38.27,141.97,57.36,74,0,12.15,AU,1597546118
312,Vilhena,-12.74,-60.15,74.84,38,66,4.23,BR,1597546118
313,Nishihara,26.18,127.76,89.6,66,40,9.17,JP,1597546118
314,Oistins,13.07,-59.53,82.4,78,20,11.41,BB,1597546118
315,Bathsheba,13.22,-59.52,82.4,78,20,11.41,BB,1597546118
316,Bezhanitsy,56.98,29.89,56.3,96,33,6.51,RU,1597546118
317,Sabang,5.89,95.32,83.46,72,14,6.64,ID,1597546119
318,Almaznyy,48.04,40.05,46.4,70,0,6.71,RU,1597546119
319,San Miguel de Tucumán,-26.82,-65.22,51.8,62,0,10.29,AR,1597545837
320,Diapaga,12.07,1.79,71.1,91,8,5.14,BF,1597546119
321,Kiunga,-6.12,141.29,84.33,66,89,2.82,PG,1597546119
322,Aromashevo,56.86,68.64,58.57,69,92,13.2,RU,1597546119
323,Colquechaca,-18.67,-66.02,28.83,55,0,6.31,BO,1597546119
324,Diré,12.28,-10.97,72.16,95,82,2.84,ML,1597546120
325,Wilmington,34.23,-77.94,81.0,83,75,8.05,US,1597546074
326,Norsup,-16.07,167.38,78.8,83,75,9.17,VU,1597546120
327,Nouakchott,18.09,-15.98,81.1,76,46,14.99,MR,1597546120
328,Hofn,64.25,-15.21,52.65,79,100,7.49,IS,1597546120
329,Sechura,-5.56,-80.82,62.8,81,38,10.45,PE,1597546121
330,Flinders,-34.58,150.86,63.0,57,97,15.99,AU,1597546121
331,San Quintín,30.48,-115.95,74.53,69,0,7.54,MX,1597545964
332,Ereymentau,51.62,73.1,65.95,50,34,14.7,KZ,1597546121
333,Balikpapan,-1.27,116.83,78.55,85,99,8.59,ID,1597545921
334,Buedelsdorf,54.32,9.68,62.6,87,20,3.36,DE,1597546121
335,Jinka,5.65,36.65,63.54,80,100,3.44,ET,1597546121
336,São Filipe,14.9,-24.5,78.03,85,15,6.93,CV,1597546122
337,Exeter,50.72,-3.53,63.0,96,99,3.15,GB,1597545892
338,Soe,-9.86,124.28,84.25,32,9,8.46,ID,1597546122
339,Kondinskoye,59.65,67.41,50.88,76,56,8.28,RU,1597546122
340,Norman Wells,65.28,-126.83,59.0,77,75,8.05,CA,1597546122
341,Nouadhibou,20.93,-17.03,73.4,78,36,9.17,MR,1597546122
342,Ribeira Brava,32.65,-17.07,71.6,64,20,13.87,PT,1597546123
343,Cooma,-36.23,149.13,48.2,70,90,25.28,AU,1597546123
344,Souillac,-20.52,57.52,69.8,73,40,11.41,MU,1597546123
345,Tabou,4.42,-7.35,74.19,82,62,10.56,CI,1597546123
346,Thinadhoo,0.53,72.93,83.59,72,52,4.59,MV,1597546123
347,Sitka,57.05,-135.33,57.2,93,90,2.93,US,1597546124
348,Yate,51.54,-2.42,63.0,94,100,1.99,GB,1597546124
349,Arlit,18.74,7.39,88.16,50,55,9.04,NE,1597546124
350,Kavaratti,10.57,72.64,81.61,80,100,13.56,IN,1597546124
351,Kharan,28.58,65.42,90.64,51,44,4.52,PK,1597546124
352,Warmbad,-28.45,18.73,41.49,89,0,6.71,NA,1597546124
353,Mandiana,10.63,-8.68,69.91,93,100,3.44,GN,1597546124
354,Buala,-8.14,159.59,83.17,68,27,0.98,SB,1597546125
355,Gigmoto,13.78,124.39,84.29,74,100,3.22,PH,1597546125
356,Sørland,67.67,12.69,50.99,67,99,16.73,NO,1597546125
357,Rexburg,43.83,-111.79,82.4,21,1,6.93,US,1597546125
358,Myanaung,18.28,95.32,77.9,88,100,7.76,MM,1597546125
359,Santa Cruz,30.42,-9.6,64.4,82,0,0.18,MA,1597546126
360,Sūsangerd,31.56,48.18,78.8,44,0,2.24,IR,1597546126
361,Vestmanna,62.16,-7.17,53.6,100,90,2.98,FO,1597546126
362,Oktyabr'skiy,54.48,53.47,54.1,92,79,5.21,RU,1597546126
363,Valparaíso,-33.04,-71.63,42.8,87,0,4.7,CL,1597546126
364,Kahului,20.89,-156.47,89.6,49,40,25.28,US,1597546127
365,Carballo,43.21,-8.69,64.0,87,80,6.93,ES,1597546127
366,Jiuquan,39.74,98.52,74.55,30,100,6.98,CN,1597546127
367,Kamenka,51.32,42.77,51.01,86,9,1.99,RU,1597546127
368,Tazmalt,36.39,4.4,77.0,88,40,4.7,DZ,1597546127
369,Wewak,-3.55,143.63,84.34,65,24,6.76,PG,1597546127
370,Hammerfest,70.66,23.68,44.6,87,77,34.45,NO,1597546127
371,Comodoro Rivadavia,-45.87,-67.5,50.0,43,40,28.86,AR,1597546092
372,Yarmouth,41.71,-70.23,70.0,83,90,9.17,US,1597546005
373,Abhā,18.22,42.51,68.0,68,93,2.62,SA,1597546128
374,Mitú,1.2,-70.17,74.01,87,81,1.99,CO,1597546128
375,Boa Vista,2.82,-60.67,84.2,70,40,5.82,BR,1597545829
376,La Fria,8.22,-72.24,74.23,86,100,4.38,VE,1597546128
377,Santa Maria,-29.68,-53.81,57.2,76,75,2.24,BR,1597546128
378,Laguna,38.42,-121.42,105.8,9,1,5.82,US,1597546129
379,Kargasok,59.06,80.86,55.83,87,99,6.06,RU,1597546129
380,Siraha,26.65,86.21,86.88,70,5,15.59,NP,1597546129
381,Lerwick,60.15,-1.15,55.4,93,95,2.24,GB,1597546129
382,Safi,32.3,-9.24,65.62,84,0,14.52,MA,1597546129
383,Saint-Augustin,51.23,-58.65,59.43,69,93,7.72,CA,1597546129
384,Mobara,35.42,140.3,91.4,79,75,11.41,JP,1597546130
385,Phan Thiet,10.93,108.1,85.3,69,25,5.46,VN,1597546130
386,Buchanan,5.88,-10.05,75.11,84,91,11.9,LR,1597546130
387,Ubari,26.59,12.78,75.94,28,0,7.87,LY,1597546130
388,Wanning,18.8,110.4,86.95,70,62,9.62,CN,1597546130
389,La Reforma,25.08,-108.05,90.0,51,0,5.01,MX,1597546131
390,Champerico,14.3,-91.92,79.92,83,93,9.44,GT,1597546131
391,Alamosa,37.47,-105.87,69.8,30,1,10.29,US,1597546131
392,Mirador,-6.37,-44.36,73.8,41,85,1.88,BR,1597546131
393,Shimoda,34.67,138.95,91.4,75,20,9.17,JP,1597546131
394,Lorengau,-2.02,147.27,86.13,64,7,7.38,PG,1597546132
395,Luján,-34.57,-59.1,45.0,67,0,6.31,AR,1597546132
396,Gainesville,29.65,-82.32,78.8,88,1,4.7,US,1597546023
397,Lagoa,39.05,-27.98,73.36,86,41,22.06,PT,1597546132
398,Hobyo,5.35,48.53,75.79,75,100,20.69,SO,1597546132
399,Berlevåg,70.86,29.09,48.2,73,64,21.21,NO,1597546132
400,Sompeta,18.93,84.6,81.84,80,89,13.06,IN,1597546133
401,Dunedin,-45.87,170.5,46.0,81,83,13.0,NZ,1597545955
402,Angleton,29.17,-95.43,84.0,78,1,6.93,US,1597546133
403,Abu Samrah,35.3,37.18,67.42,69,0,8.34,SY,1597546133
404,Ségou,13.43,-6.22,74.26,88,100,12.03,ML,1597546133
405,Caravelas,-17.71,-39.25,71.83,92,67,4.92,BR,1597546133
406,Xichang,27.9,102.26,72.9,75,100,4.05,CN,1597546133
407,Santa Cruz de la Sierra,-17.8,-63.17,66.2,93,20,4.7,BO,1597545878
408,Vincennes,48.85,2.43,70.0,88,70,3.36,FR,1597546134
409,Harper,4.38,-7.72,74.79,80,72,10.89,LR,1597546134
410,Bam,29.11,58.36,93.22,19,0,4.59,IR,1597546134
411,Huilong,31.81,121.66,93.99,61,0,1.99,CN,1597546134
412,Tilichiki,60.47,166.1,55.44,70,100,8.32,RU,1597546134
413,Keelung,25.13,121.74,95.0,56,20,3.36,TW,1597546135
414,Alugan,12.22,125.48,86.02,68,75,6.08,PH,1597546135
415,Sovetskiy,61.36,63.58,52.59,71,0,5.44,RU,1597546135
416,Sasebo,33.16,129.72,91.4,63,20,5.82,JP,1597546135
417,Calabozo,8.92,-67.43,76.15,92,100,3.53,VE,1597546135
418,Pangody,65.85,74.49,47.7,92,100,14.18,RU,1597546135
419,Barbosa Ferraz,-24.03,-52.01,64.63,96,100,4.32,BR,1597546136
420,Adrar,20.5,-10.07,98.65,18,69,8.05,MR,1597546136
421,Mareeba,-17.0,145.43,87.01,23,0,8.99,AU,1597545944
422,Cuiabá,-15.6,-56.1,84.2,28,35,6.93,BR,1597546136
423,Sinnamary,5.38,-52.95,79.2,83,95,6.49,GF,1597546136
424,Blythe,33.61,-114.6,108.0,17,0,1.01,US,1597546136
425,Fort Collins,40.59,-105.08,75.99,55,10,1.01,US,1597546136
426,Washington,47.5,-120.5,89.01,27,0,1.12,US,1597546044
427,Evensk,61.95,159.23,61.11,61,52,10.45,RU,1597546137
428,Itumba,-9.4,33.18,54.21,84,89,5.06,TZ,1597546137
429,Båtsfjord,70.63,29.72,46.51,76,77,20.51,NO,1597546137
430,Macklin,52.33,-109.93,59.05,83,4,4.81,CA,1597546137
431,Luz,-19.8,-45.69,67.59,52,4,4.16,BR,1597546137
432,Asău,46.43,26.4,59.0,98,100,2.62,RO,1597546138
433,Agia Marina,37.75,23.53,79.0,38,0,1.01,GR,1597546138
434,Cap Malheureux,-19.98,57.61,72.0,65,67,7.0,MU,1597546138
435,Freeport,40.66,-73.58,73.4,64,90,11.41,US,1597546138
436,Kerugoya,-0.5,37.28,56.53,89,100,1.43,KE,1597546138
437,Zhezkazgan,47.8,67.71,66.2,45,90,8.95,KZ,1597546138
438,Maumere,-8.62,122.21,82.26,63,0,2.75,ID,1597546139
439,Maţāy,28.42,30.78,73.71,73,0,10.0,EG,1597546139
440,Bayan,46.08,127.4,78.76,64,3,7.72,CN,1597546139
441,Dalbandin,28.89,64.41,88.77,48,2,4.99,PK,1597546139
442,Ximeicun,24.96,118.38,89.6,62,20,4.47,CN,1597546139
443,Amuntai,-2.42,115.25,91.11,57,62,1.14,ID,1597546139
444,Vilyuysk,63.76,121.62,54.5,45,4,9.84,RU,1597546140
445,Malindi,-3.22,40.12,74.12,85,83,13.24,KE,1597546140
446,Oranjestad,12.52,-70.03,84.2,74,20,18.34,AW,1597545891
447,Santiago del Estero,-27.8,-64.26,53.04,41,26,5.59,AR,1597545976
448,Manokwari,-0.87,134.08,85.08,65,41,7.11,ID,1597546140
449,Akureyri,65.68,-18.09,44.6,93,53,5.06,IS,1597546140
450,Bolivar,37.61,-93.41,75.99,82,0,9.55,US,1597546140
451,Turukhansk,65.82,87.98,68.02,42,8,14.5,RU,1597546141
452,Bilibino,68.05,166.44,56.39,63,83,8.37,RU,1597546141
453,Cecilio Baez,-25.05,-56.32,59.52,95,71,5.23,PY,1597546141
454,Camopi,3.17,-52.32,72.9,92,84,2.28,GF,1597546141
455,Corowa,-36.03,146.38,55.0,86,93,5.99,AU,1597546142
456,Caucayá,-0.19,-74.78,73.47,96,95,0.34,CO,1597546142
457,Little Current,45.98,-81.92,68.0,77,75,2.24,CA,1597546142
458,Constitución,-35.33,-72.42,45.03,62,0,8.39,CL,1597546084
459,Longyearbyen,78.22,15.64,41.0,86,75,2.24,SJ,1597546142
460,Empório,40.48,21.55,62.6,93,0,3.36,GR,1597546143
461,Pundaguitan,6.37,126.17,84.54,70,43,4.05,PH,1597546143
462,Westport,41.14,-73.36,71.01,77,95,10.47,US,1597546144
463,Kruisfontein,-34.0,24.73,46.99,65,14,3.0,ZA,1597546144
464,Labuan,5.28,115.24,86.0,79,20,3.36,MY,1597546144
465,Mgandu,-5.95,34.13,55.27,76,21,9.44,TZ,1597546144
466,Bonavista,48.65,-53.11,50.0,86,0,1.99,CA,1597545938
467,Altamont,42.21,-121.74,91.4,18,1,10.29,US,1597546144
468,Pisco,-13.7,-76.22,62.6,77,92,5.82,PE,1597545977
469,Pashiya,58.43,58.26,52.41,69,100,12.21,RU,1597546145
470,Manono,-7.3,27.42,66.09,37,75,3.02,CD,1597546145
471,Avilés,43.55,-5.92,61.0,82,4,9.17,ES,1597546145
472,Ritchie,-29.04,24.6,44.6,75,0,6.93,ZA,1597546145
473,General Roca,-39.03,-67.58,46.4,39,17,13.87,AR,1597546145
474,Itatskiy,56.07,89.04,58.06,97,100,3.53,RU,1597546146
475,Mayo,38.89,-76.51,75.2,83,90,9.17,US,1597546146
476,College,64.86,-147.8,69.8,49,75,5.82,US,1597546146
477,Gushikawa,26.35,127.87,89.6,62,40,9.17,JP,1597546146
478,Jijiga,9.35,42.8,63.3,76,87,17.22,ET,1597546146
479,Virginia Beach,36.85,-75.98,77.0,94,90,10.29,US,1597546136
480,Yamethin,20.43,96.15,75.87,86,100,10.83,MM,1597546147
481,Nālūt,30.33,10.85,77.81,28,0,8.77,LY,1597546147
482,Ekibastuz,51.67,75.37,70.09,37,0,12.82,KZ,1597546147
483,Chipata,-13.63,32.65,56.61,62,65,4.88,ZM,1597546147
484,Pancas,-19.23,-40.85,67.48,96,19,2.64,BR,1597546147
485,Jumla,29.27,82.18,69.3,59,48,3.22,NP,1597546147
486,Broome,42.25,-75.83,68.0,77,75,8.05,US,1597546037
487,Chicama,-7.84,-79.15,60.1,83,73,3.89,PE,1597546148
488,Plettenberg Bay,-34.05,23.37,46.44,72,12,13.18,ZA,1597546148
489,Humberto de Campos,-2.6,-43.46,77.95,76,69,7.9,BR,1597546148
490,Xining,36.62,101.77,65.62,61,96,9.64,CN,1597546148
491,Newport,51.59,-3.0,64.0,98,100,7.09,GB,1597545955
492,Srednekolymsk,67.45,153.68,49.75,63,91,11.07,RU,1597546148
493,Flores,16.92,-89.9,75.09,90,79,3.53,GT,1597546149
494,Norfolk,42.17,-71.25,66.99,91,35,3.36,US,1597546149
495,Iquique,-20.22,-70.14,60.8,67,90,8.05,CL,1597546149
496,Moree,-29.47,149.85,59.0,67,75,9.17,AU,1597546149
497,Praia da Vitória,38.73,-27.07,71.6,83,20,11.39,PT,1597546149
498,Padang,-0.95,100.35,80.96,72,99,2.48,ID,1597546149
499,Biograd na Moru,43.94,15.45,75.99,82,0,3.36,HR,1597546149
500,Biak,-0.91,122.88,81.73,71,48,10.16,ID,1597546150
501,Batagay,67.63,134.63,42.69,62,99,6.46,RU,1597546150
502,Prieska,-29.66,22.75,38.07,81,0,9.75,ZA,1597546150
503,Dharān,26.81,87.28,84.0,70,3,6.35,NP,1597546150
504,Dvinskoy,62.15,45.12,49.39,77,91,5.17,RU,1597546151
505,Cururupu,-1.83,-44.87,76.68,84,55,5.28,BR,1597546066
506,Lethem,3.38,-59.8,76.44,83,33,4.83,GY,1597546151
507,Provost,52.35,-110.27,58.98,84,11,4.25,CA,1597545901
508,Kalmunai,7.42,81.82,83.25,65,81,0.58,LK,1597546151
509,Port Macquarie,-31.43,152.92,71.01,32,0,7.0,AU,1597546152
510,Kiama,-34.68,150.87,63.0,60,93,18.01,AU,1597546152
511,Tonj,7.27,28.68,70.7,92,74,3.87,SS,1597546152
512,Gaza,31.5,34.47,77.0,73,40,6.93,PS,1597545915
513,Nuuk,64.18,-51.72,44.6,81,0,8.05,GL,1597546152
514,Dingle,11.0,122.67,85.57,75,71,6.06,PH,1597546152
515,Turaif,31.67,38.66,71.6,53,0,6.93,SA,1597546152
516,La Ronge,55.1,-105.28,59.0,58,20,10.29,CA,1597546153
517,Formosa,-26.18,-58.18,51.8,93,0,4.7,AR,1597545952
518,Dārāb,28.75,54.54,87.04,35,0,0.87,IR,1597546153
519,Pocatello,42.87,-112.45,84.2,19,1,4.7,US,1597545957
520,São José da Coroa Grande,-8.9,-35.15,73.94,88,74,6.8,BR,1597546153
521,Ponta Delgada,37.73,-25.67,73.4,83,40,12.75,PT,1597546153
522,Oranjemund,-28.55,16.43,51.4,81,0,9.73,NA,1597546153
523,Havelock,34.88,-76.9,82.99,94,75,6.93,US,1597546154
524,Madawaska,47.36,-68.33,64.4,52,1,10.29,US,1597546154
525,Mpika,-11.83,31.45,53.73,71,26,4.85,ZM,1597546154
526,Dongsheng,39.82,109.98,71.4,61,64,8.1,CN,1597546154
527,Kuito,-12.38,16.93,51.17,41,0,3.06,AO,1597546154
528,Kouango,4.99,19.96,72.19,94,100,2.17,CF,1597546154
529,Cobija,-11.03,-68.77,79.27,63,1,2.64,BO,1597546155
530,Pangnirtung,66.15,-65.71,50.72,55,100,3.42,CA,1597546155
531,Kangasala,61.46,24.08,59.0,93,31,4.7,FI,1597546155
532,Eilat,29.56,34.95,75.25,47,0,4.21,IL,1597546155
533,Ca Mau,9.18,105.15,87.62,65,26,6.35,VN,1597546004
534,Trelew,-43.25,-65.31,46.08,53,46,24.74,AR,1597545907
535,Makkah al Mukarramah,21.43,39.83,86.31,32,93,3.87,SA,1597546156
536,Codajás,-3.84,-62.06,80.49,53,95,2.39,BR,1597546156
537,Richards Bay,-28.78,32.04,64.18,75,29,11.86,ZA,1597545895
538,Belyy Yar,53.6,91.39,66.2,88,75,2.24,RU,1597546156
539,San Isidro,-12.12,-77.05,60.8,82,90,10.29,PE,1597546156
540,Ürümqi,43.8,87.6,78.8,29,0,15.66,CN,1597546156
541,Loandjili,-4.76,11.86,71.6,100,75,2.24,CG,1597546157
542,Methóni,36.82,21.7,78.01,77,0,5.82,GR,1597546157
543,Petrovsk,52.31,45.39,49.8,83,88,12.12,RU,1597546157
544,Ust-Kuyga,70.02,135.6,41.59,68,100,4.61,RU,1597546157
545,Kalur Kot,32.16,71.26,95.59,43,26,8.1,PK,1597546157
546,Sawtell,-30.38,153.1,69.01,42,0,9.17,AU,1597546157
547,Camabatela,-8.19,15.38,56.8,98,74,3.42,AO,1597546158
548,Staraya Akkermanovka,51.25,58.24,55.4,82,13,13.42,RU,1597546158
549,Corinth,37.94,22.96,78.01,59,0,4.03,GR,1597546158
550,Amet,25.3,73.93,79.29,83,100,7.29,IN,1597546158
551,Lavrentiya,65.58,-171.0,58.35,53,0,6.31,RU,1597546158
552,Waipawa,-41.41,175.52,52.0,71,75,12.75,NZ,1597546159
553,Bloemfontein,-29.12,26.21,39.2,69,0,4.7,ZA,1597546159
554,Abaza,52.66,90.09,59.94,83,100,2.01,RU,1597546159
555,Valréas,44.38,4.99,69.01,82,12,2.55,FR,1597546160
556,Acton Vale,45.65,-72.57,66.99,91,0,7.0,CA,1597546160
557,Taoudenni,22.68,-3.98,100.72,10,0,8.88,ML,1597546160
558,Vao,-22.67,167.48,70.09,77,13,17.63,NC,1597546161
559,Klyuchi,52.27,79.17,65.75,58,1,5.77,RU,1597546161
560,Spassk-Ryazanskiy,54.41,40.38,53.01,91,62,5.12,RU,1597546161
561,Aykhal,66.0,111.5,57.2,47,0,2.24,RU,1597546161
562,Soto la Marina,23.77,-98.22,81.0,87,33,4.0,MX,1597545964
563,Puerto Colombia,10.99,-74.95,82.4,83,75,6.93,CO,1597546162
564,Nueve de Julio,-35.44,-60.88,39.99,44,0,1.01,AR,1597546162
565,Tromsø,69.65,18.96,44.6,81,87,40.26,NO,1597546162
566,Faya,18.39,42.45,68.0,68,80,3.4,SA,1597546162
567,Armidale,-30.52,151.65,46.99,89,67,7.0,AU,1597546162
